{"meta":{"code":200},"notifications":[{"type":"notificationTray","item":{"unreadCount":0}}],"response":{"venues":[{"id":"45001adcf964a520ab381fe3","name":"University of Southern California","contact":{"phone":"2137402311","formattedPhone":"(213) 740-2311","twitter":"usc","facebook":"134972803193847","facebookUsername":"usc","facebookName":"University of Southern California"},"location":{"address":"U S C","lat":34.02034142086885,"lng":-118.28520298004149,"distance":24,"postalCode":"90089","cc":"US","city":"Los Angeles","state":"CA","country":"United States","formattedAddress":["U S C","Los Angeles, CA 90089"]},"categories":[{"id":"4bf58dd8d48988d1ae941735","name":"University","pluralName":"Universities","shortName":"University","icon":{"prefix":"https:\/\/ss3.4sqi.net\/img\/categories_v2\/education\/default_","suffix":".png"},"primary":true}],"verified":true,"stats":{"checkinsCount":47778,"usersCount":12738,"tipCount":101},"url":"http:\/\/www.usc.edu","specials":{"count":0,"items":[]},"hereNow":{"count":3,"summary":"3 people are here","groups":[{"type":"others","name":"Other people here","count":3,"items":[]}]},"storeId":"","referralId":"v-1431135306"},{"id":"4b11ac2bf964a520ef8123e3","name":"Tommy Trojan","contact":{"twitter":"usc","facebook":"134972803193847","facebookUsername":"usc","facebookName":"University of Southern California"},"location":{"address":"U S C","crossStreet":"University of Southern California","lat":34.02052371646544,"lng":-118.28535318374634,"distance":0,"postalCode":"90089","cc":"US","city":"Los Angeles","state":"CA","country":"United States","formattedAddress":["U S C (University of Southern California)","Los Angeles, CA 90089"]},"categories":[{"id":"4bf58dd8d48988d166941735","name":"Sculpture Garden","pluralName":"Sculpture Gardens","shortName":"Sculpture","icon":{"prefix":"https:\/\/ss3.4sqi.net\/img\/categories_v2\/parks_outdoors\/sculpture_","suffix":".png"},"primary":true}],"verified":true,"stats":{"checkinsCount":3454,"usersCount":1624,"tipCount":18},"url":"http:\/\/www.usc.edu","specials":{"count":0,"items":[]},"hereNow":{"count":0,"summary":"Nobody here","groups":[]},"referralId":"v-1431135306"},{"id":"51743bed498e2324ac201269","name":"Los Angeles Times Festival Of Books","contact":{},"location":{"lat":34.02096849830335,"lng":-118.28511964293614,"distance":53,"cc":"US","city":"Los Angeles","state":"CA","country":"United States","formattedAddress":["Los Angeles, CA"]},"categories":[{"id":"4bf58dd8d48988d1f1931735","name":"General Entertainment","pluralName":"General Entertainment","shortName":"Entertainment","icon":{"prefix":"https:\/\/ss3.4sqi.net\/img\/categories_v2\/arts_entertainment\/default_","suffix":".png"},"primary":true}],"verified":false,"stats":{"checkinsCount":434,"usersCount":372,"tipCount":3},"specials":{"count":0,"items":[]},"hereNow":{"count":0,"summary":"Nobody here","groups":[]},"referralId":"v-1431135306"},{"id":"4e623c6262e13e3bce8a66f1","name":"Traveler Statue","contact":{},"location":{"lat":34.02053594,"lng":-118.28540722,"distance":5,"cc":"US","state":"California","country":"United States","formattedAddress":["California"]},"categories":[{"id":"4bf58dd8d48988d1aa941735","name":"College Quad","pluralName":"College Quads","shortName":"Quad","icon":{"prefix":"https:\/\/ss3.4sqi.net\/img\/categories_v2\/education\/quad_","suffix":".png"},"primary":true}],"verified":false,"stats":{"checkinsCount":61,"usersCount":32,"tipCount":0},"specials":{"count":0,"items":[]},"hereNow":{"count":0,"summary":"Nobody here","groups":[]},"referralId":"v-1431135306"},{"id":"4bda1e6e63c5c9b68dd42268","name":"Hahn Plaza","contact":{"twitter":"usc","facebook":"134972803193847","facebookUsername":"usc","facebookName":"University of Southern California"},"location":{"address":"U S C","lat":34.02046591546501,"lng":-118.28531831502914,"distance":7,"postalCode":"90089","cc":"US","city":"Los Angeles","state":"CA","country":"United States","formattedAddress":["U S C","Los Angeles, CA 90089"]},"categories":[{"id":"4bf58dd8d48988d1aa941735","name":"College Quad","pluralName":"College Quads","shortName":"Quad","icon":{"prefix":"https:\/\/ss3.4sqi.net\/img\/categories_v2\/education\/quad_","suffix":".png"},"primary":true}],"verified":true,"stats":{"checkinsCount":144,"usersCount":28,"tipCount":0},"url":"http:\/\/www.usc.edu","specials":{"count":0,"items":[]},"hereNow":{"count":0,"summary":"Nobody here","groups":[]},"referralId":"v-1431135306"},{"id":"4d5082259b27721ecfa5ae46","name":"Trousdale Parkway","contact":{"twitter":"usc","facebook":"134972803193847","facebookUsername":"usc","facebookName":"University of Southern California"},"location":{"lat":34.02090164511358,"lng":-118.28494548797607,"distance":56,"postalCode":"90089","cc":"US","city":"Los Angeles","state":"CA","country":"United States","formattedAddress":["Los Angeles, CA 90089"]},"categories":[{"id":"4bf58dd8d48988d1aa941735","name":"College Quad","pluralName":"College Quads","shortName":"Quad","icon":{"prefix":"https:\/\/ss3.4sqi.net\/img\/categories_v2\/education\/quad_","suffix":".png"},"primary":true}],"verified":true,"stats":{"checkinsCount":604,"usersCount":198,"tipCount":3},"url":"http:\/\/www.usc.edu","specials":{"count":0,"items":[]},"hereNow":{"count":0,"summary":"Nobody here","groups":[]},"referralId":"v-1431135306"},{"id":"4c758f5fb474a1cd4ba2b9bf","name":"University Park Campus Pharmacy (STU)","contact":{"phone":"2137402738","formattedPhone":"(213) 740-2738","twitter":"usc","facebook":"134972803193847","facebookUsername":"usc","facebookName":"University of Southern California"},"location":{"address":"3601 Trousdale Pkwy","crossStreet":"University of Southern California","lat":34.020353,"lng":-118.285395,"distance":19,"postalCode":"90089","cc":"US","city":"Los Angeles","state":"CA","country":"United States","formattedAddress":["3601 Trousdale Pkwy (University of Southern California)","Los Angeles, CA 90089"]},"categories":[{"id":"4bf58dd8d48988d10f951735","name":"Drugstore \/ Pharmacy","pluralName":"Drugstores \/ Pharmacies","shortName":"Pharmacy","icon":{"prefix":"https:\/\/ss3.4sqi.net\/img\/categories_v2\/shops\/pharmacy_","suffix":".png"},"primary":true}],"verified":true,"stats":{"checkinsCount":247,"usersCount":114,"tipCount":1},"url":"http:\/\/www.usc.edu","specials":{"count":0,"items":[]},"hereNow":{"count":0,"summary":"Nobody here","groups":[]},"referralId":"v-1431135306"},{"id":"4ebc51bdd5fb1fb0d8e4807e","name":"USC Reunion Weekend","contact":{},"location":{"address":"3607 Trousdale Pkwy","lat":34.020332528390696,"lng":-118.28526735305786,"distance":22,"postalCode":"90089","cc":"US","city":"Los Angeles","state":"CA","country":"United States","formattedAddress":["3607 Trousdale Pkwy","Los Angeles, CA 90089"]},"categories":[{"id":"4bf58dd8d48988d1a8941735","name":"General College & University","pluralName":"General Colleges & Universities","shortName":"Education","icon":{"prefix":"https:\/\/ss3.4sqi.net\/img\/categories_v2\/education\/other_","suffix":".png"},"primary":true}],"verified":false,"stats":{"checkinsCount":3,"usersCount":3,"tipCount":0},"specials":{"count":0,"items":[]},"hereNow":{"count":0,"summary":"Nobody here","groups":[]},"referralId":"v-1431135306"},{"id":"4f9b127de4b08ea038757cac","name":"Residential Education Office","contact":{},"location":{"lat":34.02044984872263,"lng":-118.28562776579437,"distance":26,"postalCode":"90007","cc":"US","city":"Los Angeles","state":"CA","country":"United States","formattedAddress":["Los Angeles, CA 90007"]},"categories":[{"id":"4bf58dd8d48988d197941735","name":"College Administrative Building","pluralName":"College Administrative Buildings","shortName":"Administrative Building","icon":{"prefix":"https:\/\/ss3.4sqi.net\/img\/categories_v2\/education\/administrativebuilding_","suffix":".png"},"primary":true}],"verified":false,"stats":{"checkinsCount":62,"usersCount":3,"tipCount":1},"specials":{"count":0,"items":[]},"hereNow":{"count":0,"summary":"Nobody here","groups":[]},"referralId":"v-1431135306"},{"id":"4ed549117ee5ddf314e888d4","name":"Kortschak Center","contact":{},"location":{"lat":34.0205,"lng":-118.2856,"distance":22,"postalCode":"90007","cc":"US","state":"California","country":"United States","formattedAddress":["CA 90007"]},"categories":[{"id":"4bf58dd8d48988d198941735","name":"College Academic Building","pluralName":"College Academic Buildings","shortName":"Academic Building","icon":{"prefix":"https:\/\/ss3.4sqi.net\/img\/categories_v2\/education\/academicbuilding_","suffix":".png"},"primary":true}],"verified":false,"stats":{"checkinsCount":12,"usersCount":3,"tipCount":0},"specials":{"count":0,"items":[]},"hereNow":{"count":0,"summary":"Nobody here","groups":[]},"referralId":"v-1431135306"},{"id":"50a0b600e4b0191a31d9d1d0","name":"Protect Tommy Campout","contact":{},"location":{"lat":34.020592,"lng":-118.285116,"distance":23,"postalCode":"90007","cc":"US","city":"Los Angeles","state":"CA","country":"United States","formattedAddress":["Los Angeles, CA 90007"]},"categories":[{"id":"4bf58dd8d48988d1aa941735","name":"College Quad","pluralName":"College Quads","shortName":"Quad","icon":{"prefix":"https:\/\/ss3.4sqi.net\/img\/categories_v2\/education\/quad_","suffix":".png"},"primary":true}],"verified":false,"stats":{"checkinsCount":1,"usersCount":1,"tipCount":0},"specials":{"count":0,"items":[]},"hereNow":{"count":0,"summary":"Nobody here","groups":[]},"referralId":"v-1431135306"},{"id":"4f4043bde4b062d5cb78f983","name":"Bovard Auditorium","contact":{},"location":{"lat":34.020985663753024,"lng":-118.28543936086642,"distance":52,"postalCode":"90007","cc":"US","city":"Los Angeles","state":"CA","country":"United States","formattedAddress":["Los Angeles, CA 90007"]},"categories":[{"id":"4bf58dd8d48988d1af941735","name":"College Auditorium","pluralName":"College Auditoriums","shortName":"Auditorium","icon":{"prefix":"https:\/\/ss3.4sqi.net\/img\/categories_v2\/building\/auditorium_","suffix":".png"},"primary":true}],"verified":false,"stats":{"checkinsCount":612,"usersCount":450,"tipCount":1},"specials":{"count":0,"items":[]},"hereNow":{"count":0,"summary":"Nobody here","groups":[]},"referralId":"v-1431135306"},{"id":"4e6fe505483b7e6502b2b7c8","name":"Trojan Presentation Room","contact":{},"location":{"address":"Student Union B3","lat":34.020394,"lng":-118.285595,"distance":26,"cc":"US","city":"Los Angeles","state":"CA","country":"United States","formattedAddress":["Student Union B3","Los Angeles, CA"]},"categories":[{"id":"4bf58dd8d48988d1af941735","name":"College Auditorium","pluralName":"College Auditoriums","shortName":"Auditorium","icon":{"prefix":"https:\/\/ss3.4sqi.net\/img\/categories_v2\/building\/auditorium_","suffix":".png"},"primary":true}],"verified":false,"stats":{"checkinsCount":53,"usersCount":2,"tipCount":0},"specials":{"count":0,"items":[]},"hereNow":{"count":0,"summary":"Nobody here","groups":[]},"referralId":"v-1431135306"},{"id":"501b2930e4b0edc1a8518183","name":"URSC Meeting Room","contact":{},"location":{"lat":34.020398,"lng":-118.285593,"distance":26,"postalCode":"90007","cc":"US","city":"Los Angeles","state":"CA","country":"United States","formattedAddress":["Los Angeles, CA 90007"]},"categories":[{"id":"4bf58dd8d48988d1a7941735","name":"College Library","pluralName":"College Libraries","shortName":"Library","icon":{"prefix":"https:\/\/ss3.4sqi.net\/img\/categories_v2\/building\/library_","suffix":".png"},"primary":true}],"verified":false,"stats":{"checkinsCount":31,"usersCount":2,"tipCount":0},"specials":{"count":0,"items":[]},"hereNow":{"count":0,"summary":"Nobody here","groups":[]},"referralId":"v-1431135306"},{"id":"4c28eb6b97d00f47799e40ea","name":"Ronald Tutor Campus Center (TCC)","contact":{"twitter":"usc","facebook":"134972803193847","facebookUsername":"usc","facebookName":"University of Southern California"},"location":{"address":"3607 Trousdale Pkwy","crossStreet":"University of Southern California","lat":34.02038143700895,"lng":-118.28620076179504,"distance":79,"postalCode":"90089","cc":"US","city":"Los Angeles","state":"CA","country":"United States","formattedAddress":["3607 Trousdale Pkwy (University of Southern California)","Los Angeles, CA 90089"]},"categories":[{"id":"4bf58dd8d48988d1ab941735","name":"Student Center","pluralName":"Student Centers","shortName":"Student Center","icon":{"prefix":"https:\/\/ss3.4sqi.net\/img\/categories_v2\/education\/studentcenter_","suffix":".png"},"primary":true}],"verified":true,"stats":{"checkinsCount":10844,"usersCount":2210,"tipCount":24},"url":"http:\/\/www.usc.edu","specials":{"count":0,"items":[]},"hereNow":{"count":1,"summary":"One other person is here","groups":[{"type":"others","name":"Other people here","count":1,"items":[]}]},"referralId":"v-1431135306"},{"id":"4fc7a937e4b0b85ee231d15f","name":"USC Office of International Services (OIS)","contact":{"phone":"2137402666","formattedPhone":"(213) 740-2666"},"location":{"address":"3601 Trousdale Pkwy","lat":34.020339,"lng":-118.28552,"distance":25,"postalCode":"90089","cc":"US","city":"Los Angeles","state":"CA","country":"United States","formattedAddress":["3601 Trousdale Pkwy","Los Angeles, CA 90089"]},"categories":[{"id":"4bf58dd8d48988d197941735","name":"College Administrative Building","pluralName":"College Administrative Buildings","shortName":"Administrative Building","icon":{"prefix":"https:\/\/ss3.4sqi.net\/img\/categories_v2\/education\/administrativebuilding_","suffix":".png"},"primary":true}],"verified":false,"stats":{"checkinsCount":46,"usersCount":12,"tipCount":0},"url":"http:\/\/sait.usc.edu\/ois\/","specials":{"count":0,"items":[]},"hereNow":{"count":0,"summary":"Nobody here","groups":[]},"referralId":"v-1431135306"},{"id":"507ccedce4b074e852a996cf","name":"Residential Education Study Room","contact":{},"location":{"lat":34.020354,"lng":-118.285622,"distance":31,"postalCode":"90007","cc":"US","city":"Los Angeles","state":"CA","country":"United States","formattedAddress":["Los Angeles, CA 90007"]},"categories":[{"id":"4bf58dd8d48988d1a8941735","name":"General College & University","pluralName":"General Colleges & Universities","shortName":"Education","icon":{"prefix":"https:\/\/ss3.4sqi.net\/img\/categories_v2\/education\/other_","suffix":".png"},"primary":true}],"verified":false,"stats":{"checkinsCount":17,"usersCount":1,"tipCount":0},"specials":{"count":0,"items":[]},"hereNow":{"count":0,"summary":"Nobody here","groups":[]},"referralId":"v-1431135306"},{"id":"4e289fa8e4cd6c6cb348e354","name":"USC Career Center","contact":{"phone":"2137409111","formattedPhone":"(213) 740-9111","twitter":"usccareercenter"},"location":{"address":"Trousdale Pkwy","crossStreet":"University Of Southern California","lat":34.02046402648388,"lng":-118.28569627662561,"distance":32,"postalCode":"90089","cc":"US","city":"Los Angeles","state":"CA","country":"United States","formattedAddress":["Trousdale Pkwy (University Of Southern California)","Los Angeles, CA 90089"]},"categories":[{"id":"4bf58dd8d48988d1a8941735","name":"General College & University","pluralName":"General Colleges & Universities","shortName":"Education","icon":{"prefix":"https:\/\/ss3.4sqi.net\/img\/categories_v2\/education\/other_","suffix":".png"},"primary":true}],"verified":true,"stats":{"checkinsCount":594,"usersCount":91,"tipCount":1},"url":"http:\/\/careers.usc.edu","specials":{"count":0,"items":[]},"hereNow":{"count":0,"summary":"Nobody here","groups":[]},"venuePage":{"id":"33613605"},"storeId":"","referralId":"v-1431135306"},{"id":"4dacb78affcb9b393b9c1ee2","name":"URSC Office","contact":{},"location":{"address":"3601 Trousdale Pkwy, Ste 200H","lat":34.020344666850924,"lng":-118.28564489350478,"distance":33,"postalCode":"90089","cc":"US","city":"Los Angeles","state":"CA","country":"United States","formattedAddress":["3601 Trousdale Pkwy, Ste 200H","Los Angeles, CA 90089"]},"categories":[],"verified":false,"stats":{"checkinsCount":52,"usersCount":2,"tipCount":0},"specials":{"count":0,"items":[]},"hereNow":{"count":0,"summary":"Nobody here","groups":[]},"referralId":"v-1431135306"},{"id":"512663bce4b07130befa4057","name":"USC Ticket Office","contact":{},"location":{"lat":34.020187,"lng":-118.28542,"distance":37,"postalCode":"90007","cc":"US","city":"Los Angeles","state":"CA","country":"United States","formattedAddress":["Los Angeles, CA 90007"]},"categories":[{"id":"4bf58dd8d48988d1ff941735","name":"Miscellaneous Shop","pluralName":"Miscellaneous Shops","shortName":"Shop","icon":{"prefix":"https:\/\/ss3.4sqi.net\/img\/categories_v2\/shops\/default_","suffix":".png"},"primary":true}],"verified":false,"stats":{"checkinsCount":12,"usersCount":8,"tipCount":0},"specials":{"count":0,"items":[]},"hereNow":{"count":0,"summary":"Nobody here","groups":[]},"referralId":"v-1431135306"},{"id":"4d48968856eab60c897b4386","name":"USC Center for Women and Men (STU 202)","contact":{"phone":"2137404900","formattedPhone":"(213) 740-4900"},"location":{"address":"3601 Trousdale Pkwy, Ste 202C","crossStreet":"Child's Way","lat":34.02038389057227,"lng":-118.28574195049778,"distance":39,"postalCode":"90089","cc":"US","city":"Los Angeles","state":"CA","country":"United States","formattedAddress":["3601 Trousdale Pkwy, Ste 202C (Child's Way)","Los Angeles, CA 90089"]},"categories":[{"id":"4bf58dd8d48988d1ab941735","name":"Student Center","pluralName":"Student Centers","shortName":"Student Center","icon":{"prefix":"https:\/\/ss3.4sqi.net\/img\/categories_v2\/education\/studentcenter_","suffix":".png"},"primary":true}],"verified":false,"stats":{"checkinsCount":7,"usersCount":2,"tipCount":0},"specials":{"count":0,"items":[]},"hereNow":{"count":0,"summary":"Nobody here","groups":[]},"referralId":"v-1431135306"},{"id":"4c6c84fc99b9236aecf4e2c9","name":"Traditions Bar & Grill","contact":{"phone":"2138213449","formattedPhone":"(213) 821-3449","twitter":"usc","facebook":"134972803193847","facebookUsername":"usc","facebookName":"University of Southern California"},"location":{"address":"3607 Trousdale Pkwy, TCC Basement","crossStreet":"University of Southern California","lat":34.02027917350229,"lng":-118.2862651348114,"distance":88,"postalCode":"90089","cc":"US","city":"Los Angeles","state":"CA","country":"United States","formattedAddress":["3607 Trousdale Pkwy, TCC Basement (University of Southern California)","Los Angeles, CA 90089"]},"categories":[{"id":"4bf58dd8d48988d11d941735","name":"Sports Bar","pluralName":"Sports Bars","shortName":"Sports Bar","icon":{"prefix":"https:\/\/ss3.4sqi.net\/img\/categories_v2\/nightlife\/sportsbar_","suffix":".png"},"primary":true}],"verified":true,"stats":{"checkinsCount":3462,"usersCount":1255,"tipCount":14},"url":"http:\/\/www.usc.edu","specials":{"count":0,"items":[]},"hereNow":{"count":0,"summary":"Nobody here","groups":[]},"referralId":"v-1431135306"},{"id":"4b678e72f964a5201f552be3","name":"Bovard Administration Building (ADM)","contact":{"phone":"2137404211","formattedPhone":"(213) 740-4211","twitter":"usc","facebook":"134972803193847","facebookUsername":"usc","facebookName":"University of Southern California"},"location":{"address":"3551 Trousdale Pkwy","crossStreet":"University of Southern California","lat":34.020963892023644,"lng":-118.28559458255768,"distance":53,"postalCode":"90089","cc":"US","city":"Los Angeles","state":"CA","country":"United States","formattedAddress":["3551 Trousdale Pkwy (University of Southern California)","Los Angeles, CA 90089"]},"categories":[{"id":"4bf58dd8d48988d1af941735","name":"College Auditorium","pluralName":"College Auditoriums","shortName":"Auditorium","icon":{"prefix":"https:\/\/ss3.4sqi.net\/img\/categories_v2\/building\/auditorium_","suffix":".png"},"primary":true}],"verified":true,"stats":{"checkinsCount":2005,"usersCount":1101,"tipCount":5},"url":"http:\/\/www.usc.edu\/bovard","specials":{"count":0,"items":[]},"hereNow":{"count":0,"summary":"Nobody here","groups":[]},"storeId":"","referralId":"v-1431135306"},{"id":"4e84ec9cf790181b8932eb3d","name":"Cardinal and Gold Conference Room","contact":{},"location":{"lat":34.0202,"lng":-118.285515,"distance":39,"cc":"US","city":"Los Angeles","state":"CA","country":"United States","formattedAddress":["Los Angeles, CA"]},"categories":[{"id":"4bf58dd8d48988d1a8941735","name":"General College & University","pluralName":"General Colleges & Universities","shortName":"Education","icon":{"prefix":"https:\/\/ss3.4sqi.net\/img\/categories_v2\/education\/other_","suffix":".png"},"primary":true}],"verified":false,"stats":{"checkinsCount":34,"usersCount":1,"tipCount":0},"specials":{"count":0,"items":[]},"hereNow":{"count":0,"summary":"Nobody here","groups":[]},"referralId":"v-1431135306"},{"id":"4b11ad92f964a5200f8223e3","name":"Alumni Park","contact":{"twitter":"usc","facebook":"134972803193847","facebookUsername":"usc","facebookName":"University of Southern California"},"location":{"address":"U S C","lat":34.02058151742651,"lng":-118.28458070755005,"distance":71,"postalCode":"90089","cc":"US","city":"Los Angeles","state":"CA","country":"United States","formattedAddress":["U S C","Los Angeles, CA 90089"]},"categories":[{"id":"4bf58dd8d48988d1aa941735","name":"College Quad","pluralName":"College Quads","shortName":"Quad","icon":{"prefix":"https:\/\/ss3.4sqi.net\/img\/categories_v2\/education\/quad_","suffix":".png"},"primary":true}],"verified":true,"stats":{"checkinsCount":1119,"usersCount":652,"tipCount":3},"url":"http:\/\/www.usc.edu","specials":{"count":0,"items":[]},"hereNow":{"count":0,"summary":"Nobody here","groups":[]},"referralId":"v-1431135306"},{"id":"4b8db80af964a520690a33e3","name":"Student Union (STU)","contact":{"twitter":"usc","facebook":"134972803193847","facebookUsername":"usc","facebookName":"University of Southern California"},"location":{"address":"3601 Trousdale Pkwy","crossStreet":"University of Southern California","lat":34.02017246362487,"lng":-118.28571796417236,"distance":51,"postalCode":"90089","cc":"US","city":"Los Angeles","state":"CA","country":"United States","formattedAddress":["3601 Trousdale Pkwy (University of Southern California)","Los Angeles, CA 90089"]},"categories":[{"id":"4bf58dd8d48988d197941735","name":"College Administrative Building","pluralName":"College Administrative Buildings","shortName":"Administrative Building","icon":{"prefix":"https:\/\/ss3.4sqi.net\/img\/categories_v2\/education\/administrativebuilding_","suffix":".png"},"primary":true}],"verified":true,"stats":{"checkinsCount":2083,"usersCount":533,"tipCount":2},"url":"http:\/\/www.usc.edu\/student-affairs\/","specials":{"count":0,"items":[]},"hereNow":{"count":0,"summary":"Nobody here","groups":[]},"referralId":"v-1431135306"},{"id":"45001c89f964a520ad381fe3","name":"USC Bookstore (BKS)","contact":{"phone":"2137400066","formattedPhone":"(213) 740-0066","twitter":"usc","facebook":"134972803193847","facebookUsername":"usc","facebookName":"University of Southern California"},"location":{"address":"840 Childs Way","crossStreet":"University of Southern California","lat":34.02066154946147,"lng":-118.28649044036865,"distance":106,"postalCode":"90089","cc":"US","city":"Los Angeles","state":"CA","country":"United States","formattedAddress":["840 Childs Way (University of Southern California)","Los Angeles, CA 90089"]},"categories":[{"id":"4bf58dd8d48988d1b1941735","name":"College Bookstore","pluralName":"College Bookstores","shortName":"Bookstore","icon":{"prefix":"https:\/\/ss3.4sqi.net\/img\/categories_v2\/shops\/bookstore_","suffix":".png"},"primary":true}],"verified":true,"stats":{"checkinsCount":5895,"usersCount":2077,"tipCount":11},"url":"http:\/\/uscbookstore.com","specials":{"count":0,"items":[]},"hereNow":{"count":0,"summary":"Nobody here","groups":[]},"storeId":"","referralId":"v-1431135306"},{"id":"510c9073e4b0a3ee45f5f7a3","name":"Los Angeles A Cappella Festival","contact":{},"location":{"lat":34.020903,"lng":-118.285537,"distance":45,"postalCode":"90007","cc":"US","city":"Los Angeles","state":"CA","country":"United States","formattedAddress":["Los Angeles, CA 90007"]},"categories":[{"id":"4bf58dd8d48988d1e5931735","name":"Music Venue","pluralName":"Music Venues","shortName":"Music Venue","icon":{"prefix":"https:\/\/ss3.4sqi.net\/img\/categories_v2\/arts_entertainment\/musicvenue_","suffix":".png"},"primary":true}],"verified":false,"stats":{"checkinsCount":2,"usersCount":2,"tipCount":0},"specials":{"count":0,"items":[]},"hereNow":{"count":0,"summary":"Nobody here","groups":[]},"referralId":"v-1431135306"},{"id":"4d9a2d580d5f224b2290a04e","name":"Center For Black Cultural And Student Affairs (CBCSA)","contact":{},"location":{"address":"3601 U S C, Fl UNIV","lat":34.020302295684814,"lng":-118.28576624393463,"distance":45,"postalCode":"90089","cc":"US","city":"Los Angeles","state":"CA","country":"United States","formattedAddress":["3601 U S C, Fl UNIV","Los Angeles, CA 90089"]},"categories":[{"id":"4bf58dd8d48988d1ab941735","name":"Student Center","pluralName":"Student Centers","shortName":"Student Center","icon":{"prefix":"https:\/\/ss3.4sqi.net\/img\/categories_v2\/education\/studentcenter_","suffix":".png"},"primary":true}],"verified":false,"stats":{"checkinsCount":5,"usersCount":2,"tipCount":1},"specials":{"count":0,"items":[]},"hereNow":{"count":0,"summary":"Nobody here","groups":[]},"referralId":"v-1431135306"},{"id":"4f6a0ccae4b0330c1de228c0","name":"USC Kortschak Center For Learning And Creativity","contact":{"phone":"2137407884","formattedPhone":"(213) 740-7884","twitter":"kortschakcenter"},"location":{"address":"3601 U S C","crossStreet":"Childs Way","lat":34.02043341288356,"lng":-118.28580475205204,"distance":42,"postalCode":"90089","cc":"US","city":"Los Angeles","state":"CA","country":"United States","formattedAddress":["3601 U S C (Childs Way)","Los Angeles, CA 90089"]},"categories":[{"id":"4bf58dd8d48988d1ab941735","name":"Student Center","pluralName":"Student Centers","shortName":"Student Center","icon":{"prefix":"https:\/\/ss3.4sqi.net\/img\/categories_v2\/education\/studentcenter_","suffix":".png"},"primary":true}],"verified":true,"stats":{"checkinsCount":62,"usersCount":7,"tipCount":1},"url":"http:\/\/kortschakcenter.usc.edu","specials":{"count":0,"items":[]},"hereNow":{"count":0,"summary":"Nobody here","groups":[]},"storeId":"","referralId":"v-1431135306"},{"id":"4c782964566db60c4bb3400e","name":"Lemonade USC","contact":{"twitter":"lemonadela","facebook":"116394956016","facebookUsername":"LemonadeLA","facebookName":"Lemonade LA"},"location":{"address":"3607 Trousdale Pkwy","crossStreet":"USC Tutor Campus Center","lat":34.02059040987855,"lng":-118.28609883785248,"distance":69,"postalCode":"90089","cc":"US","city":"Los Angeles","state":"CA","country":"United States","formattedAddress":["3607 Trousdale Pkwy (USC Tutor Campus Center)","Los Angeles, CA 90089"]},"categories":[{"id":"4bf58dd8d48988d14e941735","name":"American Restaurant","pluralName":"American Restaurants","shortName":"American","icon":{"prefix":"https:\/\/ss3.4sqi.net\/img\/categories_v2\/food\/default_","suffix":".png"},"primary":true}],"verified":true,"stats":{"checkinsCount":2312,"usersCount":799,"tipCount":26},"url":"http:\/\/www.lemonadela.com","specials":{"count":0,"items":[]},"hereNow":{"count":0,"summary":"Nobody here","groups":[]},"storeId":"","referralId":"v-1431135306"},{"id":"4e4aa41c62847afcaf18beb5","name":"USC LGBT Resource Center","contact":{},"location":{"address":"3601 Trousdale Parkway, STU 202B","lat":34.02029044,"lng":-118.28572316,"distance":42,"cc":"US","city":"Los Angeles","state":"CA","country":"United States","formattedAddress":["3601 Trousdale Parkway, STU 202B","Los Angeles, CA"]},"categories":[{"id":"4bf58dd8d48988d197941735","name":"College Administrative Building","pluralName":"College Administrative Buildings","shortName":"Administrative Building","icon":{"prefix":"https:\/\/ss3.4sqi.net\/img\/categories_v2\/education\/administrativebuilding_","suffix":".png"},"primary":true}],"verified":false,"stats":{"checkinsCount":35,"usersCount":11,"tipCount":1},"specials":{"count":0,"items":[]},"hereNow":{"count":0,"summary":"Nobody here","groups":[]},"referralId":"v-1431135306"},{"id":"50bcf818e4b032480fbc2de3","name":"SJACS","contact":{},"location":{"lat":34.020347,"lng":-118.285832,"distance":48,"postalCode":"90007","cc":"US","city":"Los Angeles","state":"CA","country":"United States","formattedAddress":["Los Angeles, CA 90007"]},"categories":[{"id":"4bf58dd8d48988d1a8941735","name":"General College & University","pluralName":"General Colleges & Universities","shortName":"Education","icon":{"prefix":"https:\/\/ss3.4sqi.net\/img\/categories_v2\/education\/other_","suffix":".png"},"primary":true}],"verified":false,"stats":{"checkinsCount":1,"usersCount":1,"tipCount":0},"specials":{"count":0,"items":[]},"hereNow":{"count":0,"summary":"Nobody here","groups":[]},"referralId":"v-1431135306"},{"id":"4c6d96b8c52437049c9728eb","name":"Panda Express","contact":{"phone":"2138213482","formattedPhone":"(213) 821-3482"},"location":{"address":"3607 Trousdale Pkwy","crossStreet":"USC Tutor Campus Center","lat":34.020332528390696,"lng":-118.28612565994263,"distance":74,"postalCode":"90089","cc":"US","city":"Los Angeles","state":"CA","country":"United States","formattedAddress":["3607 Trousdale Pkwy (USC Tutor Campus Center)","Los Angeles, CA 90089"]},"categories":[{"id":"4bf58dd8d48988d145941735","name":"Chinese Restaurant","pluralName":"Chinese Restaurants","shortName":"Chinese","icon":{"prefix":"https:\/\/ss3.4sqi.net\/img\/categories_v2\/food\/asian_","suffix":".png"},"primary":true}],"verified":false,"stats":{"checkinsCount":1103,"usersCount":278,"tipCount":4},"url":"https:\/\/pandaexpress.com","menu":{"type":"Menu","label":"Menu","anchor":"View Menu","url":"https:\/\/pandaexpress.com\/menu\/","mobileUrl":"https:\/\/pandaexpress.com\/menu\/","externalUrl":"https:\/\/pandaexpress.com\/menu\/"},"specials":{"count":0,"items":[]},"hereNow":{"count":0,"summary":"Nobody here","groups":[]},"referralId":"v-1431135306"},{"id":"4c76c29ef247370449f563eb","name":"Seeds Marketplace","contact":{"phone":"2138213465","formattedPhone":"(213) 821-3465","twitter":"usc","facebook":"134972803193847","facebookUsername":"usc","facebookName":"University of Southern California"},"location":{"address":"3607 Trousdale Pkwy","crossStreet":"USC Tutor Campus Center","lat":34.02056373251961,"lng":-118.28606128692627,"distance":65,"postalCode":"90089","cc":"US","city":"Los Angeles","state":"CA","country":"United States","formattedAddress":["3607 Trousdale Pkwy (USC Tutor Campus Center)","Los Angeles, CA 90089"]},"categories":[{"id":"4bf58dd8d48988d1c5941735","name":"Sandwich Place","pluralName":"Sandwich Places","shortName":"Sandwiches","icon":{"prefix":"https:\/\/ss3.4sqi.net\/img\/categories_v2\/food\/deli_","suffix":".png"},"primary":true}],"verified":true,"stats":{"checkinsCount":2464,"usersCount":587,"tipCount":17},"url":"http:\/\/www.usc.edu","specials":{"count":0,"items":[]},"hereNow":{"count":0,"summary":"Nobody here","groups":[]},"referralId":"v-1431135306"},{"id":"4fb0892ee4b08594940b1e27","name":"Gonzo's Fountain Paradise","contact":{},"location":{"lat":34.020440674496356,"lng":-118.28597031967497,"distance":57,"postalCode":"90007","cc":"US","city":"Los Angeles","state":"CA","country":"United States","formattedAddress":["Los Angeles, CA 90007"]},"categories":[{"id":"4bf58dd8d48988d1ab941735","name":"Student Center","pluralName":"Student Centers","shortName":"Student Center","icon":{"prefix":"https:\/\/ss3.4sqi.net\/img\/categories_v2\/education\/studentcenter_","suffix":".png"},"primary":true}],"verified":false,"stats":{"checkinsCount":16,"usersCount":3,"tipCount":1},"specials":{"count":0,"items":[]},"hereNow":{"count":0,"summary":"Nobody here","groups":[]},"referralId":"v-1431135306"},{"id":"4e9b212f6d86e2007a04907d","name":"Tetris Tournament","contact":{"phone":"7132400485","formattedPhone":"(713) 240-0485","twitter":"tetris_official"},"location":{"address":"3551 Trousdale Pkwy","lat":34.0210083540743,"lng":-118.28557312488556,"distance":57,"postalCode":"90089","cc":"US","city":"Los Angeles","state":"CA","country":"United States","formattedAddress":["3551 Trousdale Pkwy","Los Angeles, CA 90089"]},"categories":[{"id":"4bf58dd8d48988d1e1931735","name":"Arcade","pluralName":"Arcades","shortName":"Arcade","icon":{"prefix":"https:\/\/ss3.4sqi.net\/img\/categories_v2\/arts_entertainment\/arcade_","suffix":".png"},"primary":true}],"verified":false,"stats":{"checkinsCount":5,"usersCount":5,"tipCount":1},"specials":{"count":0,"items":[]},"hereNow":{"count":0,"summary":"Nobody here","groups":[]},"referralId":"v-1431135306"},{"id":"5318b7b6498ed955b5e8a2cc","name":"USC Women's Conference","contact":{},"location":{"lat":34.02096,"lng":-118.28563,"distance":54,"cc":"US","city":"Los Angeles","state":"CA","country":"United States","formattedAddress":["Los Angeles, CA"]},"categories":[{"id":"4bf58dd8d48988d1ae941735","name":"University","pluralName":"Universities","shortName":"University","icon":{"prefix":"https:\/\/ss3.4sqi.net\/img\/categories_v2\/education\/default_","suffix":".png"},"primary":true}],"verified":false,"stats":{"checkinsCount":2,"usersCount":2,"tipCount":0},"specials":{"count":0,"items":[]},"hereNow":{"count":0,"summary":"Nobody here","groups":[]},"referralId":"v-1431135306"},{"id":"4ac94884f964a52087bf20e3","name":"Doheny Memorial Library (DML)","contact":{"phone":"2137402924","formattedPhone":"(213) 740-2924","twitter":"usc","facebook":"134972803193847","facebookUsername":"usc","facebookName":"University of Southern California"},"location":{"address":"3550 Trousdale Pkwy","crossStreet":"University of Southern California","lat":34.02015912488073,"lng":-118.28383505344391,"distance":145,"postalCode":"90089","cc":"US","city":"Los Angeles","state":"CA","country":"United States","formattedAddress":["3550 Trousdale Pkwy (University of Southern California)","Los Angeles, CA 90089"]},"categories":[{"id":"4bf58dd8d48988d1a7941735","name":"College Library","pluralName":"College Libraries","shortName":"Library","icon":{"prefix":"https:\/\/ss3.4sqi.net\/img\/categories_v2\/building\/library_","suffix":".png"},"primary":true}],"verified":true,"stats":{"checkinsCount":5267,"usersCount":1413,"tipCount":18},"url":"http:\/\/www.usc.edu\/libraries\/locations\/doheny\/","hasMenu":true,"menu":{"type":"Menu","label":"Menu","anchor":"View Menu","url":"https:\/\/foursquare.com\/v\/doheny-memorial-library-dml\/4ac94884f964a52087bf20e3\/menu","mobileUrl":"https:\/\/foursquare.com\/v\/4ac94884f964a52087bf20e3\/device_menu"},"specials":{"count":0,"items":[]},"hereNow":{"count":0,"summary":"Nobody here","groups":[]},"referralId":"v-1431135306"},{"id":"4ebdd9ca4901f56b0d210139","name":"The Forum","contact":{},"location":{"crossStreet":"TCC 4th Floor","lat":34.0206393635339,"lng":-118.28602170269764,"distance":63,"postalCode":"90007","cc":"US","city":"Los Angeles","state":"CA","country":"United States","formattedAddress":["TCC 4th Floor","Los Angeles, CA 90007"]},"categories":[{"id":"4bf58dd8d48988d1af941735","name":"College Auditorium","pluralName":"College Auditoriums","shortName":"Auditorium","icon":{"prefix":"https:\/\/ss3.4sqi.net\/img\/categories_v2\/building\/auditorium_","suffix":".png"},"primary":true}],"verified":false,"stats":{"checkinsCount":48,"usersCount":29,"tipCount":0},"specials":{"count":0,"items":[]},"hereNow":{"count":0,"summary":"Nobody here","groups":[]},"referralId":"v-1431135306"},{"id":"4c7424dab474a1cd8cc0b5bf","name":"The Coffee Bean & Tea Leaf","contact":{"twitter":"usc","facebook":"134972803193847","facebookUsername":"usc","facebookName":"University of Southern California"},"location":{"address":"Ronald Tutor Campus Center","lat":34.020305,"lng":-118.286121,"distance":74,"cc":"US","city":"Los Angeles","state":"CA","country":"United States","formattedAddress":["Ronald Tutor Campus Center","Los Angeles, CA"]},"categories":[{"id":"4bf58dd8d48988d1e0931735","name":"Coffee Shop","pluralName":"Coffee Shops","shortName":"Coffee Shop","icon":{"prefix":"https:\/\/ss3.4sqi.net\/img\/categories_v2\/food\/coffeeshop_","suffix":".png"},"primary":true}],"verified":true,"stats":{"checkinsCount":1249,"usersCount":364,"tipCount":7},"url":"http:\/\/www.usc.edu","specials":{"count":0,"items":[]},"hereNow":{"count":0,"summary":"Nobody here","groups":[]},"referralId":"v-1431135306"},{"id":"4f3433a7e4b00c3266cb5555","name":"Asian Pacific American Student Services (APASS)","contact":{},"location":{"address":"3601 Trousdale Pkwy","lat":34.02031,"lng":-118.285878,"distance":53,"postalCode":"90089","cc":"US","city":"Los Angeles","state":"CA","country":"United States","formattedAddress":["3601 Trousdale Pkwy","Los Angeles, CA 90089"]},"categories":[{"id":"4bf58dd8d48988d1ab941735","name":"Student Center","pluralName":"Student Centers","shortName":"Student Center","icon":{"prefix":"https:\/\/ss3.4sqi.net\/img\/categories_v2\/education\/studentcenter_","suffix":".png"},"primary":true}],"verified":false,"stats":{"checkinsCount":77,"usersCount":7,"tipCount":3},"specials":{"count":0,"items":[]},"hereNow":{"count":0,"summary":"Nobody here","groups":[]},"referralId":"v-1431135306"},{"id":"4d6485c83384a093e21f9d3c","name":"The Rosen Family Screening Theater","contact":{},"location":{"crossStreet":"Ronald Tutor Campus Center","lat":34.020377,"lng":-118.285959,"distance":58,"cc":"US","city":"Los Angeles","state":"CA","country":"United States","formattedAddress":["Ronald Tutor Campus Center","Los Angeles, CA"]},"categories":[{"id":"4bf58dd8d48988d1ac941735","name":"College Theater","pluralName":"College Theaters","shortName":"Theater","icon":{"prefix":"https:\/\/ss3.4sqi.net\/img\/categories_v2\/arts_entertainment\/performingarts_theater_","suffix":".png"},"primary":true}],"verified":false,"stats":{"checkinsCount":5,"usersCount":2,"tipCount":0},"specials":{"count":0,"items":[]},"hereNow":{"count":0,"summary":"Nobody here","groups":[]},"referralId":"v-1431135306"},{"id":"4e7106471f6ec963ae3e4c2b","name":"Steven And Kathryn Sample Hall","contact":{},"location":{"lat":34.02034143332676,"lng":-118.28592464586403,"distance":56,"cc":"US","city":"Los Angeles","state":"CA","country":"United States","formattedAddress":["Los Angeles, CA"]},"categories":[{"id":"4bf58dd8d48988d1ab941735","name":"Student Center","pluralName":"Student Centers","shortName":"Student Center","icon":{"prefix":"https:\/\/ss3.4sqi.net\/img\/categories_v2\/education\/studentcenter_","suffix":".png"},"primary":true}],"verified":false,"stats":{"checkinsCount":21,"usersCount":16,"tipCount":0},"specials":{"count":0,"items":[]},"hereNow":{"count":0,"summary":"Nobody here","groups":[]},"referralId":"v-1431135306"},{"id":"4b732a4ef964a520509f2de3","name":"Physical Education Building (PED)","contact":{"twitter":"usc","facebook":"134972803193847","facebookUsername":"usc","facebookName":"University of Southern California"},"location":{"address":"3560 Watts Way","crossStreet":"University of Southern California","lat":34.02133737252531,"lng":-118.28639388084412,"distance":131,"postalCode":"90089","cc":"US","city":"Los Angeles","state":"CA","country":"United States","formattedAddress":["3560 Watts Way (University of Southern California)","Los Angeles, CA 90089"]},"categories":[{"id":"4bf58dd8d48988d1a9941735","name":"College Rec Center","pluralName":"College Rec Centers","shortName":"Rec Center","icon":{"prefix":"https:\/\/ss3.4sqi.net\/img\/categories_v2\/education\/reccenter_","suffix":".png"},"primary":true}],"verified":true,"stats":{"checkinsCount":1590,"usersCount":307,"tipCount":9},"url":"http:\/\/www.usc.edu","specials":{"count":0,"items":[]},"hereNow":{"count":0,"summary":"Nobody here","groups":[]},"referralId":"v-1431135306"},{"id":"4f8736fbe4b0e6f346803553","name":"El Rodeo Staff Room","contact":{},"location":{"lat":34.020148,"lng":-118.285889,"distance":64,"postalCode":"90007","cc":"US","city":"Los Angeles","state":"CA","country":"United States","formattedAddress":["Los Angeles, CA 90007"]},"categories":[{"id":"4bf58dd8d48988d197941735","name":"College Administrative Building","pluralName":"College Administrative Buildings","shortName":"Administrative Building","icon":{"prefix":"https:\/\/ss3.4sqi.net\/img\/categories_v2\/education\/administrativebuilding_","suffix":".png"},"primary":true}],"verified":false,"stats":{"checkinsCount":10,"usersCount":2,"tipCount":0},"specials":{"count":0,"items":[]},"hereNow":{"count":0,"summary":"Nobody here","groups":[]},"referralId":"v-1431135306"},{"id":"4ee7d04a5c5c04b331afb76b","name":"The Trojan Grand Ballroom in The Ronald Tutor Campus Center","contact":{},"location":{"address":"3607 Trousdale Pkwy","crossStreet":"Childs Way","lat":34.020328576487735,"lng":-118.28611875947594,"distance":73,"postalCode":"90089","cc":"US","city":"Los Angeles","state":"CA","country":"United States","formattedAddress":["3607 Trousdale Pkwy (Childs Way)","Los Angeles, CA 90089"]},"categories":[{"id":"4bf58dd8d48988d1f2931735","name":"Performing Arts Venue","pluralName":"Performing Arts Venues","shortName":"Performing Arts","icon":{"prefix":"https:\/\/ss3.4sqi.net\/img\/categories_v2\/arts_entertainment\/performingarts_","suffix":".png"},"primary":true}],"verified":true,"stats":{"checkinsCount":95,"usersCount":52,"tipCount":1},"specials":{"count":0,"items":[]},"hereNow":{"count":0,"summary":"Nobody here","groups":[]},"venuePage":{"id":"78153869"},"referralId":"v-1431135306"},{"id":"4d936a1b9213b1f741f5c746","name":"Graduate Student Lounge (USC Tutor Center)","contact":{},"location":{"address":"3207 Trousdale Parkway","lat":34.020384,"lng":-118.286187,"distance":78,"postalCode":"90007","cc":"US","city":"Los Angeles","state":"CA","country":"United States","formattedAddress":["3207 Trousdale Parkway","Los Angeles, CA 90007"]},"categories":[{"id":"4bf58dd8d48988d1ab941735","name":"Student Center","pluralName":"Student Centers","shortName":"Student Center","icon":{"prefix":"https:\/\/ss3.4sqi.net\/img\/categories_v2\/education\/studentcenter_","suffix":".png"},"primary":true}],"verified":false,"stats":{"checkinsCount":273,"usersCount":41,"tipCount":1},"specials":{"count":0,"items":[]},"hereNow":{"count":0,"summary":"Nobody here","groups":[]},"referralId":"v-1431135306"},{"id":"4c4a04035609c9b6b391158f","name":"California Pizza Kitchen","contact":{"phone":"2138213481","formattedPhone":"(213) 821-3481","twitter":"uschospitality"},"location":{"address":"U S C","crossStreet":"University of Southern California","lat":34.020309,"lng":-118.28613102537922,"distance":75,"postalCode":"90089","cc":"US","city":"Los Angeles","state":"CA","country":"United States","formattedAddress":["U S C (University of Southern California)","Los Angeles, CA 90089"]},"categories":[{"id":"4bf58dd8d48988d1ca941735","name":"Pizza Place","pluralName":"Pizza Places","shortName":"Pizza","icon":{"prefix":"https:\/\/ss3.4sqi.net\/img\/categories_v2\/food\/pizza_","suffix":".png"},"primary":true}],"verified":false,"stats":{"checkinsCount":761,"usersCount":292,"tipCount":6},"url":"http:\/\/cpk.com","menu":{"type":"Menu","label":"Menu","anchor":"View Menu","url":"http:\/\/cpk.com\/menu\/","mobileUrl":"http:\/\/cpk.com\/menu\/","externalUrl":"http:\/\/cpk.com\/menu\/"},"specials":{"count":0,"items":[]},"hereNow":{"count":0,"summary":"Nobody here","groups":[]},"referralId":"v-1431135306"},{"id":"4e5ff277b993678bb52a9fbd","name":"The Helenes Bench","contact":{},"location":{"lat":34.02093699846506,"lng":-118.28478801523579,"distance":69,"cc":"US","state":"California","country":"United States","formattedAddress":["California"]},"categories":[{"id":"4bf58dd8d48988d1aa941735","name":"College Quad","pluralName":"College Quads","shortName":"Quad","icon":{"prefix":"https:\/\/ss3.4sqi.net\/img\/categories_v2\/education\/quad_","suffix":".png"},"primary":true}],"verified":false,"stats":{"checkinsCount":12,"usersCount":2,"tipCount":1},"specials":{"count":0,"items":[]},"hereNow":{"count":0,"summary":"Nobody here","groups":[]},"referralId":"v-1431135306"}],"confident":true}}